{"restaurants":[{"id":"a10744ec-b1cb-4599-9825-51a28c068fc3","name":"坠落街烧烤王","coordinates":{"lat":28.1856,"lng":112.9386},"address":"麓山南路堕落街中段","category":"烧烤","poiId":"amap-B00140G3P9","source":"amap","rating":4.7,"reviewCount":3,"avgPrice":38,"priceLevel":2,"photos":["https://images.unsplash.com/photo-1555939594-58d7cbad1b4e?w=600"],"tel":"0731-88880001","tags":["烧烤","夜宵","堕落街","排队王"],"busyStatus":"暂无实时拥挤信息","recentReviews":[],"hotDishes":[],"status":"verified","isFavorite":false,"isLiked":false,"likes":0},{"id":"e47b6678-7190-4f7c-814a-cd8a62403a8a","name":"麓山臭豆腐老店","coordinates":{"lat":28.1842,"lng":112.9378},"address":"麓山南路与阜埠河路交叉口","category":"小吃","poiId":"amap-B00140G3PA","source":"amap","rating":4.5,"reviewCount":2,"avgPrice":12,"priceLevel":1,"photos":["https://images.unsplash.com/photo-1563245372-f21724e3856d?w=600"],"tel":"","tags":["臭豆腐","长沙特色","排队","老字号"],"busyStatus":"暂无实时拥挤信息","recentReviews":[],"hotDishes":[],"status":"verified","isFavorite":false,"isLiked":false,"likes":0},{"id":"272530c7-c4e8-4f43-aed3-bac7bb7fb518","name":"天马砂锅饭","coordinates":{"lat":28.1835,"lng":112.9395},"address":"天马学生公寓食堂二层","category":"简餐","poiId":"amap-B00140G3PB","source":"amap","rating":4.3,"reviewCount":3,"avgPrice":18,"priceLevel":1,"photos":["https://images.unsplash.com/photo-1512058564369-b4a0f7a3040a?w=600"],"tel":"","tags":["砂锅饭","简餐","学生价","米饭"],"busyStatus":"暂无实时拥挤信息","recentReviews":[],"hotDishes":[],"status":"verified","isFavorite":false,"isLiked":false,"likes":0},{"id":"c954341e-74af-43e9-8e99-5fe9a8843ddd","name":"岳麓剁椒鱼头馆","coordinates":{"lat":28.187,"lng":112.936},"address":"岳麓山南门入口左侧","category":"湘菜","poiId":"amap-B00140G3PC","source":"amap","rating":4.7,"reviewCount":3,"avgPrice":58,"priceLevel":2,"photos":["https://images.unsplash.com/photo-1544025162-d76694265947?w=600"],"tel":"0731-88880004","tags":["湘菜","剁椒鱼头","聚餐","老店"],"busyStatus":"暂无实时拥挤信息","recentReviews":[],"hotDishes":[],"status":"verified","isFavorite":false,"isLiked":false,"likes":0},{"id":"0c7b6f32-df23-44c5-b2c3-4d897d7e7975","name":"茶百道·大学城店","coordinates":{"lat":28.184,"lng":112.9405},"address":"天马路与阜埠河路交叉口","category":"奶茶","poiId":"amap-B00140G3PD","source":"amap","rating":3.5,"reviewCount":2,"avgPrice":15,"priceLevel":1,"photos":["https://images.unsplash.com/photo-1558857563-b371033873b8?w=600"],"tel":"","tags":["奶茶","果茶","网红","连锁"],"busyStatus":"暂无实时拥挤信息","recentReviews":[],"hotDishes":[],"status":"verified","isFavorite":false,"isLiked":false,"likes":0},{"id":"a15ec6c2-8504-4a8f-8707-8e912b461b88","name":"老长沙口味虾","coordinates":{"lat":28.1862,"lng":112.9392},"address":"麓山南路中段","category":"湘菜","poiId":"amap-B00140G3PE","source":"amap","rating":4.5,"reviewCount":2,"avgPrice":65,"priceLevel":3,"photos":["https://images.unsplash.com/photo-1563379926898-05f4575a45d8?w=600"],"tel":"0731-88880006","tags":["龙虾","口味虾","夜宵","长沙特色"],"busyStatus":"暂无实时拥挤信息","recentReviews":[],"hotDishes":[],"status":"verified","isFavorite":false,"isLiked":false,"likes":0},{"id":"831a5c6e-88cf-40af-8231-bda1d34d341a","name":"螺蛳粉小站","coordinates":{"lat":28.1851,"lng":112.9381},"address":"堕落街东口","category":"小吃","poiId":"amap-B00140G3PF","source":"amap","rating":4.5,"reviewCount":2,"avgPrice":16,"priceLevel":1,"photos":["https://images.unsplash.com/photo-1555126634-323283e090fa?w=600"],"tel":"","tags":["螺蛳粉","粉面","重口味","学生最爱"],"busyStatus":"暂无实时拥挤信息","recentReviews":[],"hotDishes":[],"status":"verified","isFavorite":false,"isLiked":false,"likes":0},{"id":"1f981d0e-7666-47dd-be93-03501aeab305","name":"湖南米粉铺","coordinates":{"lat":28.1838,"lng":112.9372},"address":"阜埠河路与麓山南路交汇","category":"小吃","poiId":"amap-B00140G3PG","source":"amap","rating":4.5,"reviewCount":2,"avgPrice":14,"priceLevel":1,"photos":["https://images.unsplash.com/photo-1569058242567-93de6f36f8f6?w=600"],"tel":"","tags":["米粉","长沙特色","早餐","牛肉粉"],"busyStatus":"暂无实时拥挤信息","recentReviews":[],"hotDishes":[],"status":"verified","isFavorite":false,"isLiked":false,"likes":0},{"id":"174c6f5c-8e22-48ee-85eb-eb5bf04ccb3f","name":"蜜雪冰城·天马店","coordinates":{"lat":28.1845,"lng":112.9408},"address":"天马学生公寓底商","category":"奶茶","poiId":"amap-B00140G3PH","source":"amap","rating":3.5,"reviewCount":2,"avgPrice":6,"priceLevel":1,"photos":["https://images.unsplash.com/photo-1572490122747-3968b75cc699?w=600"],"tel":"","tags":["奶茶","冰品","性价比","学生价"],"busyStatus":"暂无实时拥挤信息","recentReviews":[],"hotDishes":[],"status":"verified","isFavorite":false,"isLiked":false,"likes":0},{"id":"f4923473-f26c-4e9f-a8a6-fa49722caa45","name":"重庆鸡公煲","coordinates":{"lat":28.1858,"lng":112.939},"address":"伊斯兰堡牛肉面旁巷内","category":"简餐","poiId":"amap-B00140G3PI","source":"amap","rating":4,"reviewCount":2,"avgPrice":28,"priceLevel":2,"photos":["https://images.unsplash.com/photo-1534422298631-64a2285d0e69?w=600"],"tel":"","tags":["鸡公煲","米饭","一人食","微辣"],"busyStatus":"暂无实时拥挤信息","recentReviews":[],"hotDishes":[],"status":"verified","isFavorite":false,"isLiked":false,"likes":0},{"id":"b71a82ed-bfe4-43de-86e5-294544235c86","name":"书亦烧草·大学城","coordinates":{"lat":28.1832,"lng":112.9396},"address":"阜埠河路","category":"奶茶","poiId":"amap-B00140G3PJ","source":"amap","rating":4,"reviewCount":2,"avgPrice":13,"priceLevel":1,"photos":["https://images.unsplash.com/photo-1461023058943-07fcbe309012?w=600"],"tel":"","tags":["烧仙草","奶茶","果茶","连锁"],"busyStatus":"暂无实时拥挤信息","recentReviews":[],"hotDishes":[],"status":"verified","isFavorite":false,"isLiked":false,"likes":0},{"id":"2fb7fa00-6d34-4c1c-aa1a-24cb62e0acf6","name":"外婆炊包","coordinates":{"lat":28.1865,"lng":112.9383},"address":"麓山南路西段","category":"简餐","poiId":"amap-B00140G3PK","source":"amap","rating":3.5,"reviewCount":2,"avgPrice":22,"priceLevel":1,"photos":["https://images.unsplash.com/photo-1504674900247-0877df9cc836?w=600"],"tel":"","tags":["盖码饭","蒸菜","家常菜","米饭"],"busyStatus":"暂无实时拥挤信息","recentReviews":[],"hotDishes":[],"status":"verified","isFavorite":false,"isLiked":false,"likes":0},{"id":"745e34c1-63cf-478b-8564-acdd2f66ea67","name":"老字号糖油粑粑","coordinates":{"lat":28.1847,"lng":112.9375},"address":"麓山南路","category":"小吃","poiId":"amap-B00140G3PL","source":"amap","rating":4.5,"reviewCount":2,"avgPrice":8,"priceLevel":1,"photos":["https://images.unsplash.com/photo-1488477181946-6428a0291777?w=600"],"tel":"","tags":["糖油粑粑","甜品","长沙特色","老字号"],"busyStatus":"暂无实时拥挤信息","recentReviews":[],"hotDishes":[],"status":"verified","isFavorite":false,"isLiked":false,"likes":0},{"id":"b47bfca6-0aed-4a8a-84d1-7193f8d0b22d","name":"杨国福麻辣烫","coordinates":{"lat":28.1843,"lng":112.9402},"address":"天马路","category":"简餐","poiId":"amap-B00140G3PM","source":"amap","rating":3.5,"reviewCount":2,"avgPrice":25,"priceLevel":1,"photos":["https://images.unsplash.com/photo-1583032015879-41a5e5f0b6db?w=600"],"tel":"","tags":["麻辣烫","自选","一人食","连锁"],"busyStatus":"暂无实时拥挤信息","recentReviews":[],"hotDishes":[],"status":"verified","isFavorite":false,"isLiked":false,"likes":0},{"id":"bb69c3fb-edd3-4936-b134-1026346920b6","name":"古茗·岳麓店","coordinates":{"lat":28.1868,"lng":112.9371},"address":"岳麓山下","category":"奶茶","poiId":"amap-B00140G3PN","source":"amap","rating":4,"reviewCount":2,"avgPrice":14,"priceLevel":1,"photos":["https://images.unsplash.com/photo-1525803377221-511e07993f6d?w=600"],"tel":"","tags":["奶茶","果茶","连锁","新品多"],"busyStatus":"暂无实时拥挤信息","recentReviews":[],"hotDishes":[],"status":"verified","isFavorite":false,"isLiked":false,"likes":0},{"id":"5d02c8f1-20bf-4965-99d4-6b70069758a3","name":"柴火饭庄","coordinates":{"lat":28.1853,"lng":112.9398},"address":"后湖小区北门","category":"湘菜","poiId":"amap-B00140G3PO","source":"amap","rating":4.5,"reviewCount":2,"avgPrice":52,"priceLevel":2,"photos":["https://images.unsplash.com/photo-1555396273-2dbc25a2c0d7?w=600"],"tel":"0731-88880016","tags":["湘菜","柴火饭","聚餐","老店"],"busyStatus":"暂无实时拥挤信息","recentReviews":[],"hotDishes":[],"status":"verified","isFavorite":false,"isLiked":false,"likes":0},{"id":"8ab9ad42-14d3-4439-93c4-7dcaafdd361a","name":"左家垅炒码粉","coordinates":{"lat":28.1828,"lng":112.941},"address":"左家垅","category":"小吃","poiId":"amap-B00140G3PP","source":"amap","rating":4.5,"reviewCount":2,"avgPrice":13,"priceLevel":1,"photos":["https://images.unsplash.com/photo-1552611056-41be59265f5a?w=600"],"tel":"","tags":["炒码粉","长沙特色","早餐","粉面"],"busyStatus":"暂无实时拥挤信息","recentReviews":[],"hotDishes":[],"status":"verified","isFavorite":false,"isLiked":false,"likes":0},{"id":"7ccdec66-8c09-4ee2-a654-27561babc165","name":"益禾堂·麓山南","coordinates":{"lat":28.185,"lng":112.937},"address":"麓山南路","category":"奶茶","poiId":"amap-B00140G3PQ","source":"amap","rating":4,"reviewCount":1,"avgPrice":10,"priceLevel":1,"photos":["https://images.unsplash.com/photo-1557142046-c704a3adf364?w=600"],"tel":"","tags":["奶茶","烤奶","学生价","连锁"],"busyStatus":"暂无实时拥挤信息","recentReviews":[],"hotDishes":[],"status":"verified","isFavorite":false,"isLiked":false,"likes":0},{"id":"f848629f-019e-4921-8cc9-b04893d5dbe0","name":"铁板厨房","coordinates":{"lat":28.1839,"lng":112.9388},"address":"阜埠河路","category":"简餐","poiId":"amap-B00140G3PR","source":"amap","rating":3.5,"reviewCount":2,"avgPrice":32,"priceLevel":2,"photos":["https://images.unsplash.com/photo-1547592180-85a173df4867?w=600"],"tel":"","tags":["铁板烧","简餐","一人食","性价比"],"busyStatus":"暂无实时拥挤信息","recentReviews":[],"hotDishes":[],"status":"verified","isFavorite":false,"isLiked":false,"likes":0},{"id":"dc8c8fe6-49c7-446d-98c6-17411e3a0354","name":"肯德基·大学城","coordinates":{"lat":28.1846,"lng":112.939},"address":"大学城商业广场一层","category":"快餐","poiId":"amap-B00140G3PS","source":"amap","rating":3,"reviewCount":2,"avgPrice":30,"priceLevel":2,"photos":["https://images.unsplash.com/photo-1572802419226-3c0a1a4e3c0f?w=600"],"tel":"0731-88880020","tags":["快餐","炸鸡","连锁","外卖"],"busyStatus":"暂无实时拥挤信息","recentReviews":[],"hotDishes":[],"status":"verified","isFavorite":false,"isLiked":false,"likes":0}],"total":20}
